{
    "d": [{
		"first":"Ryan",
		"last":"King",	
		"suffix":"CPCU, CLU,ChFC",
		"dist":"- 1.2 mi",		
		"insurance":"King Insurance",
		"lic":"Lic: IL-946832245",
		"address": ["3355 Lenox Road NE","1 grand ave","308 oak drive","308 oak dr","308 oak dr."],
		"Suite" : "230",		
		"citystate":"Atlanta, GA",
		"zip": "30326-1332",
		"phone":"(404) 816-3276",
		"photo":"img/agents/ryanking.jpg",
		"__type": "VEMaps.PinData",
        "Title": "Mike Snelling State Farm",
        "Description": "Push Pin 1.5",
        "Latitude": 33.634421,
        "Longitude": -84.393851,
		"icon" : "marker.png",
		"city":"Atlanta, IL",
		"langauges":"English",
		"hours":"Mon-Fri 9:00am to 5:00pm Saturday & Evenings by Appt.",
		"products": ["Auto","Bank","Home"]

    },{
		"first":"Willard",
		"last":"Murphy",	
		"suffix":"CPCU, CLU,ChFC",
		"dist":"- 1.5 mi",	
		"insurance":"Murphy Insurance",
		"lic":"Lic: IL-946832245",		
		"address": ["3867 Roswell Road NE ","1 grand ave","308 oak drive","308 oak dr","308 oak dr."],
		"Suite" : "101",		
		"citystate":"Atlanta, GA",
		"zip": "30342-4452",
		"phone":"(404) 816-8885",
		"photo":"img/agents/WillardMurphy.jpg",
		"__type": "VEMaps.PinData",
        "Title": "Mike Snelling 1State Farm",
        "Description": "Push Pin 1.5",
        "Latitude": 33.62999,
        "Longitude":  -84.398099,
		"icon" : "marker2.png",
		"city":"Atlanta, IL",
		"langauges":"English",
		"hours":"Mon-Fri 9:00am to 5:00pm Saturday & Evenings by Appt.",
		"products": ["Auto","Bank","Home"]
		
    },{
		"first":"Wendy",
		"last":"Leung",	
		"suffix":"CPCU, CLU,ChFC",
		"dist":"- 1.8 mi",	
		"insurance":"Leung Insurance",
		"lic":"Lic: IL-946832245",
		"address": ["9A Lenox Pointe NE","1 grand ave","308 oak drive","308 oak dr","308 oak dr."],
		"Suite" : "",		
		"citystate":"Atlanta, GA",
		"zip": "30324-3171",
		"phone":"(404) 266-8118",
		"photo":"img/agents/WendyLeung.jpg",
		"__type": "VEMaps.PinData",
        "Title": "Mike Snelling 2State Farm",
        "Description": "Push Pin 1.5",
        "Latitude": 33.635761,
        "Longitude":  -84.40473,
		"icon" : "marker3.png",
		"city":"Atlanta, IL",
		"langauges":"English",
		"hours":"Mon-Fri 9:00am to 5:00pm Saturday & Evenings by Appt.",
		"products": ["Auto","Bank","Home"]
    },{
		"first":"Tanya",
		"last":"Ramariz",	
		"suffix":"CPCU, CLU,ChFC",
		"dist":"- 2.2 mi",	
		"insurance":"Ramariz Insurance",
		"lic":"Lic: IL-946832245",
		"address": ["79 Piazza Lane","1 grand ave","308 oak drive","308 oak dr","308 oak dr."],
		"Suite" : "",		
		"citystate":"Atlanta, GA",
		"zip": "",
		"phone":"(404) 728-4999",
		"photo":"img/agents/TanyaRamariz.jpg",
		"__type": "VEMaps.PinData",
        "Title": "Mike Snelling State Farm",
        "Description": "Push Pin 1.5",
        "Latitude": 33.627506,
        "Longitude":  -84.403861,
		"icon" : "marker4.png",
		"city":"Chicago, IL",
		"langauges":"English",
		"hours":"Mon-Fri 9:00am to 5:00pm Saturday & Evenings by Appt.",
		"products": ["Auto","Bank","Home"]
    },{
		"first":"Mike",
		"last":"Whitfield",	
		"suffix":"CPCU, CLU,ChFC",
		"dist":"- 2.2 mi",	
		"insurance":"Ramariz Insurance",
		"lic":"Lic: IL-946832245",
		"address": ["79 Piazza Lane","1 grand ave","308 oak drive","308 oak dr","308 oak dr."],
		"Suite" : "",		
		"citystate":"Atlanta, GA",
		"zip": "",
		"phone":"(404) 728-4999",
		"photo":"img/agents/TanyaRamariz.jpg",
		"__type": "VEMaps.PinData",
        "Title": "Mike Snelling State Farm",
        "Description": "Push Pin 1.5",
        "Latitude": 33.627506,
        "Longitude":  -84.403861,
		"icon" : "marker4.png",
		"city":"Chicago, IL",
		"langauges":"English",
		"hours":"Mon-Fri 9:00am to 5:00pm Saturday & Evenings by Appt.",
		"products": ["Auto","Bank","Home"]
    }
]}